{
  "type": "FeatureCollection",
  "features": [
    {
      "type": "Feature",
      "geometry": { "type": "Point", "coordinates": [11.2558, 43.7696] },
      "properties": {
        "id": "florence",
        "name": "佛罗伦萨",
        "name_en": "Florence",
        "role": "renaissance-center",
        "color": "#C62828",
        "era": "14-16 世纪",
        "desc": "文艺复兴的心脏。美第奇家族用商业财富赞助艺术，达·芬奇、米开朗基罗、拉斐尔都在此活跃。"
      }
    },
    {
      "type": "Feature",
      "geometry": { "type": "Point", "coordinates": [12.4964, 41.9028] },
      "properties": {
        "id": "rome",
        "name": "罗马",
        "name_en": "Rome",
        "role": "renaissance-center",
        "color": "#C62828",
        "era": "教皇国",
        "desc": "教皇所在地。米开朗基罗在此画了西斯廷天顶画。讽刺的是，重建圣彼得大教堂所筹的赎罪券，也正是宗教改革的导火索。"
      }
    },
    {
      "type": "Feature",
      "geometry": { "type": "Point", "coordinates": [12.6487, 51.8665] },
      "properties": {
        "id": "wittenberg",
        "name": "威登堡",
        "name_en": "Wittenberg",
        "role": "reformation-center",
        "color": "#1565C0",
        "era": "1517",
        "desc": "1517 年 10 月 31 日，马丁·路德将 95 条论纲钉在此城堡教堂的木门上。萨克森选帝侯腓特烈贤明的保护是改革能爆发的政治前提。"
      }
    },
    {
      "type": "Feature",
      "geometry": { "type": "Point", "coordinates": [-0.1276, 51.5074] },
      "properties": {
        "id": "london",
        "name": "伦敦",
        "name_en": "London",
        "role": "reformation-center",
        "color": "#1565C0",
        "era": "1534",
        "desc": "1534 年亨利八世建立英国国教，宗教改革进入第二阶段——从神学之争变为国家与罗马的权力斗争。"
      }
    },
    {
      "type": "Feature",
      "geometry": { "type": "Point", "coordinates": [6.1432, 46.2044] },
      "properties": {
        "id": "geneva",
        "name": "日内瓦",
        "name_en": "Geneva",
        "role": "reformation-center",
        "color": "#1565C0",
        "era": "1541",
        "desc": "加尔文主义的大本营。比路德更严格的新教派，后来在荷兰、苏格兰、北美殖民地影响深远。"
      }
    },
    {
      "type": "Feature",
      "geometry": { "type": "Point", "coordinates": [11.5820, 48.1351] },
      "properties": {
        "id": "augsburg",
        "name": "奥格斯堡",
        "name_en": "Augsburg",
        "role": "negotiation",
        "color": "#F57F17",
        "era": "1555",
        "desc": "1555 年《奥格斯堡和约》在此签订，首次确立教随国定原则，为三十年后的威斯特伐利亚体系奠基。"
      }
    }
  ]
}
